{"pageProps":{"villages":[{"province":"Aurora","municipality":"Casiguran","association":"Bianoan New Generation Farmers Association","lat":"16.1915183280993","barangay":"Binaoan","lon":"122.055610426236"},{"association":"Binukawan Upland and Lowland Farmer's Association","barangay":"Binukawan","lat":"14.6328","province":"Bataan","lon":"120.4285","municipality":"Bagac"},{"municipality":"Bustos","lon":"120.952020848263","barangay":"Tibagan","association":"Samahang Magsasaka ng Bustos (SMB) Inc.","lat":"14.9593819927777","province":"Bulacan"},{"barangay":"Catacte","lat":"14.9197361375252","association":"ANBUSPA Irrigators Association, Inc.","municipality":"Bustos","lon":"120.943655172687","province":"Bulacan"},{"municipality":"Pandi","lat":"14.9046147741291","barangay":"Cacarong Matanda","association":"Cacarong Matanda Farmers Association","lon":"120.967992992319","province":"Bulacan"},{"association":"Malibong Bata Consumer’s Cooperative","province":"Bulacan","lon":"120.929749839703","lat":"14.8414121020991","barangay":"Malibong Bata","municipality":"Pandi"},{"association":"Samahan ng Magsasaka sa Kaunlaran ng Pandi, Inc. (SAMAKAPA)","lon":"120.987341318764","province":"Bulacan","municipality":"Pandi","barangay":"Siling Matanda","lat":"14.9030483009144"},{"lat":"16.1019001339137","province":"Nueva Ecija","municipality":"Carranglan","association":"Capintalan Animal Raising Association Inc","barangay":"Capintalan","lon":"120.926329351379"},{"province":"Nueva Ecija","lon":"120.953633997398","association":"Sitio Kasahingan Farmers Association","municipality":"Carranglan","barangay":"Putlan","lat":"16.051374019563"},{"lon":"121.013474693364","barangay":"San Agustin","province":"Nueva Ecija","association":"Caalawan Agro Forest Farmer Association Inc","municipality":"Carranglan","lat":"15.8018818864228"},{"barangay":"San Anton","lon":"120.919998566703","lat":"15.3439648545405","municipality":"San Leonardo","association":"Bukluran ng Makabangong Magsasaka ng San Anton","province":"Nueva Ecija"},{"barangay":"San Jose","association":"Tabon San Jose Farmers Association","lat":"15.0218002660163","province":"Pampanga","municipality":"San Jose","lon":"120.816467993696"},{"lat":"15.0030962894503","barangay":"San Matias","association":"Saint Mathew Farmers Association","province":"Pampanga","municipality":"Santa Rita","lon":"120.610367596475"},{"association":"Samahang Magbubukid ng Dila-Dila Farmers Association","province":"Pampanga","municipality":"Santa Rita","barangay":"Dila- Dila","lat":"","lon":""},{"province":"Pampanga","lon":"","municipality":"Santa Rita","association":"Dalan Matua San Matias Farmers Association","barangay":"San Matias","lat":""},{"municipality":"Gerona","province":"Tarlac","barangay":"Matayuncab","lat":"15.589316698583","lon":"120.596980766708","association":"Samahang Magsasaka ng Brgy. Matayuncab"},{"barangay":"San Bartolome","province":"Tarlac","lon":"120.543911504771","association":"Climate Resilient Farmers Association of San Bartolome","lat":"15.5852623019525","municipality":"Gerona"},{"province":"Tarlac","lat":"15.3988403627947","association":"Caut Farmers Field School Marketing Cooperative","municipality":"La paz","barangay":"Caut","lon":"120.718766224375"},{"barangay":"Cruz","association":"AMIA Cruz Agriculture Cooperative","province":"Tarlac","lon":"120.689181488033","municipality":"Victoria","lat":"15.5583257523993"},{"province":"Zambales","barangay":"Real","municipality":"Candelaria","association":"Samahang Ingat Kabukiran Angat at Pagbabago (SIKAP)","lon":"","lat":""},{"municipality":"Candelaria","lat":"15.6605716002567","lon":"119.935852456373","barangay":"Sinabacan","province":"Zambales","association":"Barangay Sinabacan Farmers's Association"},{"province":"Zambales","barangay":"Babancal","lon":"119.944240746117","association":"Babancal Alindayat Farmers Irrigators Association Inc.","lat":"15.6183510253666","municipality":"Candelaria"},{"municipality":"San Antonio","province":"Zambales","lat":"14.9587576512883","lon":"120.082454157664","association":"Cadaanan Cabalo Farmers Association","barangay":"San Gregorio"},{"barangay":"San Esteban","association":"San Esteban Agri-Producer Association Inc","lat":"14.9476413523429","province":"Zambales","municipality":"San Antonio","lon":"120.15569478712"}],"provincesMunicipalities":[{"label":"Aurora","municipalities":[{"disabled":true,"label":"Baler","id":0},{"id":1,"disabled":true,"label":"Casiguran"},{"label":"Dilasag","disabled":true,"id":2},{"disabled":true,"label":"Dinalungan","id":3},{"id":4,"disabled":true,"label":"Dingalan"},{"disabled":true,"label":"Dipaculao","id":5},{"id":6,"disabled":true,"label":"Maria Aurora"},{"id":7,"label":"San Luis","disabled":true}],"id":0,"disabled":false},{"disabled":false,"label":"Bataan","municipalities":[{"label":"Abucay","id":0,"disabled":true},{"disabled":true,"id":1,"label":"Bagac"},{"disabled":true,"label":"Balanga City","id":2},{"label":"Dinalupihan","disabled":true,"id":3},{"label":"Hermosa","id":4,"disabled":true},{"id":5,"label":"Limay","disabled":true},{"disabled":true,"id":6,"label":"Mariveles"},{"label":"Morong","id":7,"disabled":true},{"disabled":true,"label":"Orani","id":8},{"disabled":true,"id":9,"label":"Orion"},{"id":10,"label":"Pilar","disabled":true},{"disabled":true,"id":11,"label":"Samal"}],"id":1},{"disabled":false,"id":2,"municipalities":[{"label":"Angat","id":0,"disabled":true},{"label":"Balagtas","id":1,"disabled":true},{"id":2,"disabled":true,"label":"Baliuag"},{"label":"Bocaue","id":3,"disabled":true},{"id":4,"label":"Bulacan","disabled":true},{"label":"Bustos","id":5,"disabled":true},{"disabled":true,"label":"Calumpit","id":6},{"label":"Doña Remedios Trinidad","disabled":true,"id":7},{"label":"Guiguinto","disabled":true,"id":8},{"id":9,"disabled":true,"label":"Hagonoy"},{"id":10,"disabled":true,"label":"Malolos City"},{"disabled":true,"id":11,"label":"Marilao"},{"id":12,"label":"Meycauayan City","disabled":true},{"disabled":true,"id":13,"label":"Norzagaray"},{"disabled":true,"id":14,"label":"Obando"},{"id":15,"label":"Pandi","disabled":true},{"label":"Paombong","id":16,"disabled":true},{"label":"Plaridel","id":17,"disabled":true},{"disabled":true,"label":"Pulilan","id":18},{"id":19,"disabled":true,"label":"San Ildefonso"},{"label":"San Jose del Monte City","disabled":true,"id":20},{"label":"San Miguel","id":21,"disabled":true},{"id":22,"label":"San Rafael","disabled":true},{"disabled":true,"label":"Santa Maria","id":23}],"label":"Bulacan"},{"municipalities":[{"id":0,"disabled":true,"label":"Aliaga"},{"id":1,"label":"Bongabon","disabled":true},{"id":2,"disabled":true,"label":"Cabanatuan City"},{"id":3,"label":"Cabiao","disabled":true},{"id":4,"disabled":true,"label":"Carranglan"},{"id":5,"label":"Cuyapo","disabled":true},{"label":"Gabaldon","disabled":true,"id":6},{"disabled":true,"id":7,"label":"Gapan City"},{"label":"General Mamerto Natividad","id":8,"disabled":true},{"disabled":true,"label":"General Tinio","id":9},{"label":"Guimba","id":10,"disabled":true},{"disabled":true,"id":11,"label":"Jaen"},{"id":12,"label":"Laur","disabled":true},{"id":13,"disabled":true,"label":"Licab"},{"id":14,"label":"Llanera","disabled":true},{"label":"Lupao","disabled":true,"id":15},{"disabled":true,"label":"Mu├â┬▒oz City","id":16},{"label":"Nampicuan","disabled":true,"id":17},{"id":18,"disabled":true,"label":"Palayan City"},{"id":19,"label":"Pantabangan","disabled":true},{"disabled":true,"id":20,"label":"Pe├â┬▒aranda"},{"label":"Quezon","disabled":true,"id":21},{"id":22,"label":"Rizal","disabled":true},{"id":23,"label":"San Antonio","disabled":true},{"disabled":true,"label":"San Isidro","id":24},{"disabled":true,"id":25,"label":"San Jose City"},{"label":"San Leonardo","disabled":true,"id":26},{"id":27,"disabled":true,"label":"Santa Rosa"},{"label":"Santo Domingo","disabled":true,"id":28},{"disabled":true,"label":"Talavera","id":29},{"disabled":true,"label":"Talugtug","id":30},{"id":31,"disabled":true,"label":"Zaragoza"}],"id":3,"disabled":false,"label":"Nueva Ecija"},{"id":4,"disabled":false,"municipalities":[{"label":"Angeles City","disabled":true,"id":0},{"id":1,"disabled":true,"label":"Apalit"},{"label":"Arayat","id":2,"disabled":true},{"disabled":true,"id":3,"label":"Bacolor"},{"id":4,"label":"Candaba","disabled":true},{"disabled":true,"id":5,"label":"Floridablanca"},{"disabled":true,"id":6,"label":"Guagua"},{"disabled":true,"label":"Lubao","id":7},{"disabled":true,"id":8,"label":"Mabalacat"},{"id":9,"disabled":true,"label":"Macabebe"},{"label":"Magalang","id":10,"disabled":true},{"disabled":true,"label":"Masantol","id":11},{"label":"Mexico","disabled":true,"id":12},{"id":13,"label":"Minalin","disabled":true},{"disabled":true,"label":"Porac","id":14},{"id":15,"disabled":true,"label":"San Fernando City"},{"label":"San Luis","id":16,"disabled":true},{"id":17,"disabled":true,"label":"San Simon"},{"disabled":true,"id":18,"label":"Santa Ana"},{"label":"Santa Rita","id":19,"disabled":true},{"label":"Santo Tomas","id":20,"disabled":true},{"label":"Sasmuan","disabled":true,"id":21}],"label":"Pampanga"},{"municipalities":[{"label":"Anao","disabled":true,"id":0},{"label":"Bamban","disabled":true,"id":1},{"disabled":true,"id":2,"label":"Camiling"},{"label":"Capas","id":3,"disabled":true},{"id":4,"label":"Concepcion","disabled":true},{"id":5,"label":"Gerona","disabled":true},{"id":6,"label":"La Paz","disabled":true},{"disabled":true,"id":7,"label":"Mayantoc"},{"id":8,"disabled":true,"label":"Moncada"},{"disabled":true,"id":9,"label":"Paniqui"},{"label":"Pura","disabled":true,"id":10},{"id":11,"label":"Ramos","disabled":true},{"disabled":true,"label":"San Clemente","id":12},{"disabled":true,"id":13,"label":"San Jose"},{"id":14,"disabled":true,"label":"San Manuel"},{"disabled":true,"label":"Santa Ignacia","id":15},{"disabled":true,"label":"Tarlac City","id":16},{"id":17,"label":"Victoria","disabled":true}],"label":"Tarlac","disabled":false,"id":5},{"disabled":false,"label":"Zambales","municipalities":[{"id":0,"label":"Botolan","disabled":true},{"label":"Cabangan","id":1,"disabled":true},{"id":2,"disabled":true,"label":"Candelaria"},{"id":3,"disabled":true,"label":"Castillejos"},{"disabled":true,"label":"Iba","id":4},{"id":5,"label":"Masinloc","disabled":true},{"disabled":true,"label":"Olongapo City","id":6},{"disabled":true,"label":"Palauig","id":7},{"label":"San Antonio","id":8,"disabled":true},{"disabled":true,"id":9,"label":"San Felipe"},{"id":10,"label":"San Marcelino","disabled":true},{"label":"San Narciso","id":11,"disabled":true},{"label":"Santa Cruz","disabled":true,"id":12},{"id":13,"label":"Subic","disabled":true}],"id":6}],"media":{"description":"Agro-Climatic Advisory Portal-Bicol (ACAP-BICOL) serves as a centralized hub for the development of Climate Information Services (CIS) in the Bicol Region. It contains relevant weather and climate information which can be used in developing tailored advisories and crop recommendations.","url":"https://firebasestorage.googleapis.com/v0/b/amia-cis-dev.appspot.com/o/media%2Fimages%2Fopengraph%2F1200x600%2Fog_home_1200.png?alt=media&token=51f9241c-45da-456e-9906-677c2f8fe93a","path":"https://luzon-central-region3-cis.github.io"}},"__N_SSG":true}